{
"type": "FeatureCollection",
"name": "reservoir_main",
"crs": { "type": "name", "properties": { "name": "urn:ogc:def:crs:OGC:1.3:CRS84" } },
"features": [
{ "type": "Feature", "properties": { "no": 1, "dam_id": "rsv357", "name": "อ่างดอกกราย", "name2": "ดอกกราย", "type": "main", "size": "m", "owner": "rid", "x": 101.220512, "y": 12.887343, "maxvol": null, "nhvol": null, "minvol": null, "maxwl": null, "nhwl": null, "minwl": null, "avginflow": null }, "geometry": { "type": "Point", "coordinates": [ 101.220512, 12.887343 ] } },
{ "type": "Feature", "properties": { "no": 2, "dam_id": "100504", "name": "อ่างหนองปลาไหล", "name2": "หนองปลาไหล", "type": "main", "size": "l", "owner": "rid", "x": 101.283671, "y": 12.931205, "maxvol": null, "nhvol": null, "minvol": null, "maxwl": null, "nhwl": null, "minwl": null, "avginflow": null }, "geometry": { "type": "Point", "coordinates": [ 101.283671, 12.931205 ] } },
{ "type": "Feature", "properties": { "no": 3, "dam_id": "rsv359", "name": "อ่างคลองใหญ่", "name2": "คลองใหญ่", "type": "main", "size": "m", "owner": "rid", "x": 101.325935, "y": 12.964004, "maxvol": null, "nhvol": null, "minvol": null, "maxwl": null, "nhwl": null, "minwl": null, "avginflow": null }, "geometry": { "type": "Point", "coordinates": [ 101.325935, 12.964004 ] } },
{ "type": "Feature", "properties": { "no": 4, "dam_id": "100505", "name": "อ่างประแสร์", "name2": "ประแสร์", "type": "main", "size": "l", "owner": "rid", "x": 101.566703, "y": 12.979399, "maxvol": null, "nhvol": null, "minvol": null, "maxwl": null, "nhwl": null, "minwl": null, "avginflow": null }, "geometry": { "type": "Point", "coordinates": [ 101.566703, 12.979399 ] } },
{ "type": "Feature", "properties": { "no": 5, "dam_id": "100503", "name": "อ่างบางพระ", "name2": "บางพระ", "type": "main", "size": "l", "owner": "rid", "x": 100.962142, "y": 13.210864, "maxvol": null, "nhvol": null, "minvol": null, "maxwl": null, "nhwl": null, "minwl": null, "avginflow": null }, "geometry": { "type": "Point", "coordinates": [ 100.962142, 13.210864 ] } },
{ "type": "Feature", "properties": { "no": 6, "dam_id": "rsv346", "name": "อ่างหนองค้อ", "name2": "หนองค้อ", "type": "main", "size": "m", "owner": "rid", "x": 101.034451, "y": 13.131877, "maxvol": null, "nhvol": null, "minvol": null, "maxwl": null, "nhwl": null, "minwl": null, "avginflow": null }, "geometry": { "type": "Point", "coordinates": [ 101.034451, 13.131877 ] } },
{ "type": "Feature", "properties": { "no": 7, "dam_id": "rsv491", "name": "อ่างคลองหลวงรัชชโลทร", "name2": "คลองหลวงรัชชโลทร", "type": "main", "size": "m", "owner": "rid", "x": 101.352853, "y": 13.389863, "maxvol": null, "nhvol": null, "minvol": null, "maxwl": null, "nhwl": null, "minwl": null, "avginflow": null }, "geometry": { "type": "Point", "coordinates": [ 101.352853, 13.389863 ] } },
{ "type": "Feature", "properties": { "no": 8, "dam_id": "100502", "name": "อ่างคลองสียัด", "name2": "คลองสียัด", "type": "main", "size": "l", "owner": "rid", "x": 101.652335, "y": 13.440328, "maxvol": null, "nhvol": null, "minvol": null, "maxwl": null, "nhwl": null, "minwl": null, "avginflow": null }, "geometry": { "type": "Point", "coordinates": [ 101.652335, 13.440328 ] } }
]
}
